--- 
afghanistan: 
- address: |-
    British Embassy
    15th Street, Roundabout Wazir Akbar Khan
    PO Box 334
    Kabul
    Afghanistan,Kabul
  designation: British Embassy
  lat: 34.5374
  lon: 69.1398
  location_name: Kabul
  phone: +93 (0) 700 102 000
albania: 
- address: |-
    British Embassy
    Rruga Skenderbeg 12
    Tirana,Tirana
  designation: British Embassy
  lat: 41.3302
  lon: 19.8076
  location_name: Tirana
  phone: (355) 4 223 4973
algeria: []

american-samoa: []

andorra: 
- address: |-
    Edificio Torre de Barcelona
    Avienda Diagonal 477-13
    08036 Barcelona,
  designation: 
  lat: 41.3929
  lon: 2.14575
  location_name: 
  phone: ""
angola: 
- address: |-
    British Embassy
    Rua 17 de Setembro
    Caixa Postal 1244,Luanda
  designation: British Embassy
  lat: -8.81205
  lon: 13.2228
  location_name: Luanda
  phone: (244) 222 33 45 83
anguilla: 
- address: "\n\
    Governor's Office\r\n\
    Old Ta\r\n\
    PO Box 60\r\n\
    The Valley,\r\n\
    Anguilla\r\n\
    AI-2640\r\n\
    \r\n\
    ,The Valley"
  designation: Governor's Office
  lat: 18.2111
  lon: -63.0522
  location_name: The Valley
  phone: +1 264 497 2621
antigua-and-barbuda: 
- address: "\n\
    Office of the Honorary British Consul\r\n\
    C/O PricewaterhouseCoopers\r\n\
    11 Old Parham Road\r\n\
    PO Box 1531\r\n\
    St John\xE2\x80\x99s\r\n\
    Antigua\r\n\
    West Indies \n\n\n\
    There is no resident British High Commission in Antigua, but there is a British Honorary Consul to Antigua covering consular issues. \n\n\n\
    Email: robert.wilkinson-honcon@fconet.fco.gov.uk\n\
    ,St. John's"
  designation: Honorary British Consul
  lat: 42.196
  lon: -73.3008
  location_name: St. John's
  phone: ""
argentina: 
- address: "\n\
    British Embassy Buenos Aires\r\n\
    Dr. Luis Agote 2412\r\n\
    (1425) Buenos Aires \n\
    ,Buenos Aires"
  designation: British Embassy
  lat: -34.5859
  lon: -58.3953
  location_name: Buenos Aires
  phone: +54 11 4808-2200
armenia: 
- address: |-
    British Embassy
    34 Baghramyan Avenue
    0019,Yerevan
  designation: British Embassy
  lat: 40.1923
  lon: 44.5949
  location_name: Yerevan
  phone: (374) (10) 264 301
aruba: []

ascension-island: []

australia: 
- address: |-
    British High Commission
    Consular Section
    Commonwealth Avenue
    Yarralumla
    ACT 2600,
  designation: Consular Section
  lat: -35.2952
  lon: 149.126
  location_name: Canberra
  phone: (+61) (0) 2 6270 6666
- address: "\n\
    Level 16\r\n\
    Gateway Building\r\n\
    1 Macquarie Place\r\n\
    Sydney, NSW 2000 \n\n\n\
    Please note that we are located on Macquarie Place (not Macquarie Street), between Pitt Street and Loftus Street. \xC2\xA0The Gateway Building is the blue glass skyscraper immediately behind Circular Quay railway station and ferry terminal. \n\n\n\
    Disabled access\n\
    ,Sydney"
  designation: British Consulate-General
  lat: -33.8626
  lon: 151.21
  location_name: Sydney
  phone: ""
- address: |-
    444-446 Pulteney Street
    Adelaide
    SA 5000
    ,Adelaide
  designation: British Honorary Consul
  lat: -34.9342
  lon: 138.607
  location_name: Adelaide
  phone: ""
- address: |-
    1A Brisbane Street
    Hobart
    Tasmania
    7000
    ,Hobart
  designation: British Honorary Consul
  lat: -42.8763
  lon: 147.327
  location_name: Hobart
  phone: ""
- address: "\n\
    Level 26\r\n\
    Waterfront Place\r\n\
    1 Eagle Street\r\n\
    Brisbane 4000\r\n\
    Queensland \n\n\n\
    Disabled access\n\
    ,"
  designation: British Consulate
  lat: -27.4691
  lon: 153.03
  location_name: Brisbane
  phone: (+61) (0) 7 3223 3200
- address: "\n\
    17th Floor\r\n\
    90 Collins Street\r\n\
    Melbourne\r\n\
    Victoria \n\n\n\
    Disabled access\n\
    ,Melbourne"
  designation: British Consulate-General
  lat: -37.8139
  lon: 144.97
  location_name: Melbourne
  phone: (+61) (0) 3 9652 1600
- address: "\n\
    Level 26\r\n\
    Allendale Square\r\n\
    77 St George's Terrace\r\n\
    Perth\r\n\
    Western Australia 6000 \n\n\n\
    \tDisabled access\r\n\
    ,Perth"
  designation: British Consulate
  lat: -31.955
  lon: 115.858
  location_name: Perth
  phone: ""
- address: |-
    British High Commission
    Canberra
    Commonwealth Avenue
    Yarralumla
    ACT 2600
    ,Canberra
  designation: British High Commission
  lat: 
  lon: 
  location_name: Canberra
  phone: |-
    (+61) (0) 2 6270 6666
    General enquiries only.
    For visa and passport enquiries, see below.
austria: 
- address: |-
    British Embassy
    Jauresgasse 12
    1030 Vienna,Vienna
  designation: British Embassy
  lat: 48.1977
  lon: 16.3813
  location_name: Vienna
  phone: (43) (1) 716130
- address: |-
    Bundesstrasse 110
    A-6923 Lauterach/Bregenz
    ,
  designation: British Honorary Consulate
  lat: 47.4677
  lon: 9.72774
  location_name: Bregenz
  phone: ""
- address: |-
    Schmiedgasse 8-12
    A-8010 Graz,
  designation: British Honorary Consulate
  lat: 47.0696
  lon: 15.4386
  location_name: Graz
  phone: ""
- address: |-
    Kaiserjaegerstrasse 1/Top B9
    A-6020 Innsbruck,
  designation: British Honorary Consulate
  lat: 47.2696
  lon: 11.3992
  location_name: Innsbruck
  phone: ""
- address: |-
    Alter Markt 4
    A-5020 Salzburg
    
    The British Consulate in Salzburg operates an appointment system: Please call 0043 664 610 56 17 Tuesday, Wednesday or Thursday between 0930 and 1200 to make an appointment. Please do not call this number outside of these times.
    ,
  designation: British Honorary Consulate
  lat: 47.7997
  lon: 13.0454
  location_name: Salzburg
  phone: ""
- address: |-
    Jauresgasse 10
    A-1030 Vienna,
  designation: British Embassy
  lat: 48.1976
  lon: 16.3818
  location_name: Vienna
  phone: (43) (1) 716 130
azerbaijan: 
- address: "\n\
    British Embassy\r\n\
    45 Khagani Street\r\n\
    AZ1010 \n\n\n\
    Email:generalenquiries.baku@fco.gov.uk\n\
    ,Baku"
  designation: British Embassy
  lat: 40.3756
  lon: 49.8509
  location_name: Baku
  phone: + 994 (12) 4377878
bahamas: 
- address: |-
    British High Commission
    P O Box 575
    28 Trafalgar Road
    Kingston 10
    Jamaica,Kingston
  designation: 
  lat: 18.0093
  lon: -76.7846
  location_name: 
  phone: ""
bahrain: 
- address: |-
    British Embassy
    21 Government Avenue
    Manama 306
    P O Box 114
    Kingdom of Bahrain,Manama
  designation: British Embassy
  lat: 26.2333
  lon: 50.5726
  location_name: Manama
  phone: "(973) \xC2\xA017574100"
bangladesh: 
- address: |-
    British High Commission
    United Nations Road
    Baridhara 
    P O Box 6079 
    Dhaka 1212
    ,Dhaka
  designation: British High Commission
  lat: 23.8011
  lon: 90.4186
  location_name: Dhaka
  phone: + (88) (02) 882 2705-9 (Switch Board) This number can be used as an emergency after Office Hour
- address: "\n\
    Sylhet, Consular Office\r\n\
    37-A Kumarpara\r\n\
    Sylhet, Bangladesh \n\n\n\
    Email: Consular.bangladesh@fconet.fco.gov.uk\r\n\
    ,"
  designation: British High Commission
  lat: 24.8978
  lon: 91.8783
  location_name: Sylhet
  phone: + 880-2-8822705-9
barbados: 
- address: "\n\
    British High Commission\r\n\
    Lower Collymore Rock\r\n\
    PO Box 676\r\n\
    Bridgetown\n\n\n\
    \tEmail:ukinbarbados@fco.gov.uk\n\
    ,Bridgetown"
  designation: British High Commission
  lat: 13.0933
  lon: -59.593
  location_name: Bridgetown
  phone: ""
belarus: []

belgium: 
- address: "\n\
    British Embassy\r\n\
    Avenue d'Auderghem 10 \r\n\
    Oudergemlaan \r\n\
    1040 Brussels \n\
    ,Brussels"
  designation: British Embassy
  lat: 50.843
  lon: 4.3844
  location_name: Brussels
  phone: ""
belize: 
- address: |-
    British High Commission
    PO Box 91
    Belmopan,Belmopan
  designation: British High Commission
  lat: 17.2533
  lon: -88.7732
  location_name: Belmopan
  phone: |-
    (501) 822 2981/2717/ 2146
    Consular Direct: (501) 822 3146
benin: []

bermuda: 
- address: "\n\
    Government House\r\n\
    11 Langton Hill\r\n\
    Pembroke\r\n\
    Hamilton\r\n\
    \xC2\xA0\n\
    ,Hamilton"
  designation: Government House
  lat: 32.3046
  lon: -64.7825
  location_name: Hamilton
  phone: (+1) (441) 292 3600
bhutan: 
- address: |-
    British Deputy High Commission, Kolkata (Calcutta), India
    1A Ho Chi Minh Sarani
    Kolkata - 700071
    
    VFS Office in Kolkata,
  designation: 
  lat: 22.4894
  lon: 88.271
  location_name: 
  phone: ""
bolivia: []

bonaire-st-eustatius-saba: []

bosnia-and-herzegovina: []

botswana: 
- address: |-
    British High Commission
    Plot 1079-1084 Main Mall,
    off Queens Road
    Botswana
    
    Postal Address:
    Private Bag 0023
    Gaborone,Gaborone
  designation: 
  lat: -24.6583
  lon: 25.9133
  location_name: British High Commission
  phone: (267) 395 2841
brazil: 
- address: |-
    British Embassy 
    Setor de Embaixadas Sul 
    Quadra 801, Lote 8 
    CEP 70408-900 
    Brasilia - DF, Brazil,Brasilia
  designation: British Embassy
  lat: -15.8037
  lon: -47.8741
  location_name: Brasilia
  phone: ""
- address: |-
    British Consulate-General
    Praia do Flamengo 284/2 andar
    22210-030
    Rio de Janeiro RJ
    ,
  designation: British Consulate-General
  lat: -22.9084
  lon: -43.1721
  location_name: Rio de Janeiro
  phone: (55) (21) 2555 9600
- address: |-
    British Consulate-General
    Rua Ferreira de Araujo, 741 - 2 Andar
    Pinheiros
    05428-002
    Sao Paulo-SP,
  designation: British Consulate-General
  lat: -23.5642
  lon: -46.698
  location_name: Sao Paulo
  phone: ""
british-antarctic-territory: []

british-consulate-general-cape-town: 
- address: "\n\
    British Consulate General\r\n\
    15th Floor, Norton Rose House\r\n\
    8 Riebeek Street\r\n\
    Cape Town 8000\r\n\
    Postal Address:\r\n\
    British Consulate General\r\n\
    PO Box 500\r\n\
    Cape Town 8000 \n\
    ,"
  designation: 
  lat: -33.9202
  lon: 18.4235
  location_name: 
  phone: ""
british-indian-ocean-territory: 
- address: |-
    Overseas Territories Department
    Foreign and Commonwealth Office
    King Charles Street
    London SW1A 2AH,
  designation: 
  lat: 51.5016
  lon: -0.129089
  location_name: 
  phone: ""
british-virgin-islands: 
- address: "Governor's Office, \r\n\
    PO Box 702, \r\n\
    Waterfront Drive,\r\n\
    Road Town,\r\n\
    Tortola\r\n\
    VG1110\r\n\
    \r\n\n\
    \r\n\
    \xC2\xA0 \n\
    \r\n\
    \r\n\
    ,Tortola"
  designation: Governor's Office
  lat: 18.4269
  lon: -64.6207
  location_name: Tortola
  phone: (1) 284 494 2345 / 2370
brunei: []

bulgaria: 
- address: |-
    British Embassy
    9 Moskovska Street
    Sofia 1000,Sofia
  designation: British Embassy
  lat: 42.6977
  lon: 23.3222
  location_name: Sofia
  phone: (359) (2) 933 9222
burkina-faso: []

burma: 
- address: "\n\
    \tBritish Embassy Rangoon\r\n\
    80 Strand Road \r\n\
    (Box No 638) \r\n\
    Rangoon \n\
    ,Rangoon"
  designation: British Embassy
  lat: 16.769
  lon: 96.1638
  location_name: Rangoon (Yangon)
  phone: (95) (1) 380322 / 256438
burundi: 
- address: |-
    British Embassy Liaison Office,
    Building Old East, 
    Parcelle No1/2,
    Place de l'Independance,
    Bujumbura,
    Burundi,
  designation: Embassy
  lat: -3.38504
  lon: 29.3611
  location_name: Bujumbura
  phone: (257) 22 246 478
cambodia: 
- address: "\n\
    \tBritish Embassy\r\n\
    Phnom Penh\r\n\
    27-29 Street 75 \r\n\
    Sangkat Srah Chak \r\n\
    Khan Daun Penh \n\n\n\
    Disabled access \xE2\x80\xBA\n\
    ,Phnom Penh"
  designation: British Embassy
  lat: 11.585
  lon: 104.917
  location_name: Phnom Penh
  phone: + 855 (0) 23 427124
cameroon: []

canada: 
- address: "\n\
    2000 McGill College Avenue\r\n\
    Suite 1940\r\n\
    Montreal\r\n\
    Quebec H3A 3H3\n\
    ,"
  designation: British Consulate-General
  lat: 45.4981
  lon: -73.5672
  location_name: Montreal
  phone: ""
- address: "\n\
    UK Trade & Investment\r\n\
    3000-150 6 Avenue SW\r\n\
    Calgary, AB, Canada\r\n T2P 3V7\n\
    ,"
  designation: British Trade Office
  lat: 51.0475
  lon: -114.067
  location_name: Calgary
  phone: ""
- address: "British High Commission\r\n\
    80 Elgin Street\r\n\
    Ottawa ON \xC2\xA0K1P 5K7\r\n\
    CANADA,Ottawa"
  designation: British High Commission
  lat: 45.4233
  lon: -75.6949
  location_name: Ottawa
  phone: (1) (613) 237 1530
- address: |-
    British Trade & Investment Office
    777 Bay Street
    Suite 2800
    College Park 
    Toronto 
    Ontario M5G 2G2
    ,
  designation: British Consulate-General
  lat: 43.6599
  lon: -79.3846
  location_name: Toronto
  phone: ""
- address: |-
    1 Canal Street
    P O Box 605 
    Dartmouth 
    Nova Scotia B2Y 3Y9
    ,
  designation: British Honorary Consulate
  lat: 44.6657
  lon: -63.5627
  location_name: Halifax/Dartmouth
  phone: ""
- address: |-
    Suite 700
    1150 Claire Fontaine
    Quebec City
    Quebec G1R 5G4,
  designation: British Honorary Consulate
  lat: 46.806
  lon: -71.2206
  location_name: Quebec City
  phone: ""
- address: |-
    PO Box 452
    Station C
    St John's
    Newfoundland
    A1C 5K4,
  designation: British Honorary Consulate
  lat: 42.196
  lon: -73.3008
  location_name: St John's
  phone: ""
- address: |-
    Suite 800
    1111 Melville Street 
    Vancouver 
    British Columbia V6E 3V6,
  designation: British Consulate-General
  lat: 49.2868
  lon: -123.122
  location_name: Vancouver
  phone: ""
cape-verde: []

cayman-islands: 
- address: "\n\
    \r\n\
    Postal Address:\r\n\
    Governor\xE2\x80\x99s Office\r\n\
    Suite 101\r\n\
    Grand Cayman, \xC2\xA0KY1-9000\r\n\
    Cayman Islands\r\n\
    \r\n\
    Physical Address:\r\n\
    Government Administration Building\r\n\
    133 Elgin Ave\r\n\
    George Town, Grand Cayman\r\n\
    Cayman Islands\r\n\
    ,George Town"
  designation: Governor's Office
  lat: 19.2893
  lon: -81.3772
  location_name: George Town
  phone: (+1) 345 244 2401
central-african-republic: []

chad: []

chile: 
- address: |-
    Baquedano 351
    Arica,Arica
  designation: British Honorary Consulate
  lat: -18.4796
  lon: -70.3185
  location_name: Arica
  phone: 56 58 232 399
- address: |-
    British Embassy
    Avda. El Bosque Norte 0125
    Las Condes
    Santiago
    ,Santiago
  designation: British Embassy
  lat: 
  lon: 
  location_name: Santiago
  phone: (56) (2) 370 4100
- address: "Calle Dione 1030, Lomas de Reloncav\xC3\xAD\r\n\
    Puerto Montt,"
  designation: British Honorary Consulate
  lat: -41.4784
  lon: -72.9096
  location_name: Puerto Montt
  phone: 56 65 282676
- address: |-
    The British School 
    Calle Waldo Seguel 454 
    Punta Arenas,
  designation: British Honorary Consulate
  lat: -53.1605
  lon: -70.9121
  location_name: Punta Arenas
  phone: 56 61 223381 (for appointments)
- address: "Blanco 1199, Piso 5\r\n\
    Valpara\xC3\xADso,"
  designation: British Honorary Consulate
  lat: -33.0423
  lon: -71.6237
  location_name: Valparaiso
  phone: 56 32 2213063
china: 
- address: |-
    British Embassy Beijing
    11 Guang Hua Lu
    Jian Guo Men Wai
    Beijing 100600,Beijing
  designation: British Embassy
  lat: 39.9137
  lon: 116.448
  location_name: Beijing
  phone: ""
- address: "\n\
    2nd Floor\r\n\
    Guangdong International Building\r\n\
    (Deputy Consul General's Office/Visa/Consular/Political, Economic and Public Affairs/Climate Change and Energy)\r\n\
    \r\n\
    7th Floor Guangdong International Building\r\n\
    (Consul General's Office/Trade & Investment/Science and Innovation/Corporate Service)\r\n\
    \r\n\
    339 Huanshi Dong Lu\r\n\
    Guangzhou 510098 \n\
    ,"
  designation: British Consulate-General
  lat: 23.1379
  lon: 113.283
  location_name: Guangzhou
  phone: ""
- address: |-
    Suite 2801, Metropolitan Tower
    68 Zourong Road
    Yu Zhong District
    Chongqing 400010,
  designation: British Consulate-General
  lat: 29.5568
  lon: 106.578
  location_name: Chongqing
  phone: ""
- address: |-
    4/F Landmark Building Tower 1
    8 Dongsanhuan Beilu
    Chaoyang District
    Beijing 100004,
  designation: British Embassy
  lat: 39.9137
  lon: 116.448
  location_name: Beijing
  phone: ""
- address: "\n\
    Suite 301, Shanghai Centre\r\n\
    1376 Nan Jing Xi Lu\r\n\
    Shanghai 200040 \n\n\n\
    \xC2\xA0 \n\
    ,"
  designation: British Consulate-General
  lat: 31.2439
  lon: 121.484
  location_name: Shanghai
  phone: ""
colombia: 
- address: "\n\
    British Embassy\r\n\
    Carrera 9, No 76-49, Piso 8\r\n\
    Edificio ING Barings, Bogot\xC3\xA1\r\n\
    D.C. \n\
    ,Bogot\xC3\xA1"
  designation: British Embassy
  lat: 4.59839
  lon: -74.0775
  location_name: "Bogot\xC3\xA1"
  phone: (57) (1) 326 8300
comoros: []

congo: []

congo-(democratic-republic): []

costa-rica: []

cote-d_ivoire-(ivory-coast): []

croatia: 
- address: "British Embassy\r\n\
    Ivana Lu\xC4\x8Di\xC4\x87a 4\r\n\
    10000 Zagreb ,Zagreb"
  designation: British Embassy
  lat: 45.8104
  lon: 15.9726
  location_name: Zagreb
  phone: (385)(1) 6009 100
cuba: 
- address: |-
    Calle 34 no. 702 e/ 7ma y 17, Miramar, Playa
    La Habana, Cuba
    ,Havana
  designation: British Embassy
  lat: 23.1021
  lon: -82.4413
  location_name: Havana
  phone: +53 7 214 2200
curacao: 
- address: "Unit A1K, Bon Bini Business Centre, \r\n\
    Schottegatweg Oost 10\r\n\
    Willemstad\r\n\
    Cura\xC3\xA7ao\r\n\
    Dutch Caribbean\r\n\
    ,Willemstad"
  designation: 
  lat: 
  lon: 
  location_name: British Consulate
  phone: + 599 9 736 3914
cyprus: 
- address: |-
    British High Commission
    Alexander Pallis Street (PO Box 21978) 
    1587 Nicosia or
    BFPO 567,Nicosia
  designation: British High Commission
  lat: 35.1806
  lon: 33.3502
  location_name: Nicosia
  phone: (357) (22) 861100
czech-republic: 
- address: "\n\
    British Embassy\r\n\
    Chancery, Consular/Visa, Commercial,\r\n\
    Political, Defence Section\r\n\
    Thunovska 14\r\n\
    118 00 Prague 1 \n\
    ,Prague"
  designation: British Embassy
  lat: 50.0906
  lon: 14.4029
  location_name: Prague
  phone: ""
- address: |-
    Trade and Investment Section
    Palac Myslbek
    Na Prikope 21
    117 19 Prague 1
    ,
  designation: Trade and Investment Section
  lat: 50.0825
  lon: 14.43
  location_name: Prague
  phone: ""
denmark: 
- address: "British Embassy\r\n\
    Kastelsvej 36/38/40 \r\n\
    DK-2100 Copenhagen \xC3\x98,Copenhagen"
  designation: British Embassy
  lat: 55.6936
  lon: 12.5872
  location_name: Copenhagen
  phone: (45) 35 44 52 00
- address: "British Embassy\r\n\
    Kastelsvej 36/38/40 \r\n\
    DK-2100 Copenhagen \xC3\x98,Copenhagen"
  designation: British Embassy
  lat: 55.6936
  lon: 12.5872
  location_name: Copenhagen
  phone: (45) 35 44 52 00
- address: "Delacour\r\n\
    Lille Torv 6\r\n\
    8000 \xC3\x85rhus C,"
  designation: British Honorary Consulate
  lat: 56.1578
  lon: 10.2075
  location_name: "\xC3\x85rhus"
  phone: ""
- address: |-
    Vesthavnen 
    PO Box 235
    7000 Fredericia,
  designation: British Honorary Consulate
  lat: 55.2547
  lon: 9.72637
  location_name: Fredericia
  phone: ""
- address: "P/F Damfar,\r\n\
    PO Box 1154,\r\n\
    Niels Finsensg\xC3\xB8ta 5,\r\n\
    FR-110 T\xC3\xB3rshavn,"
  designation: British Honorary Consulate
  lat: 62.0025
  lon: -6.7758
  location_name: "T\xC3\xB3rshavn (Faroe Islands)"
  phone: ""
- address: |-
    Shipping.dk Aabenraa A/S
    Gammelhavn 5
    6200 Aabenraa
    Denmark
    ,
  designation: British Honorary Consulate
  lat: 55.0425
  lon: 9.42451
  location_name: Aabenraa
  phone: ""
- address: |-
    Aage Damgaard ApS
    Lundvej 8
    7400 Herning,
  designation: British Honorary Consulate
  lat: 56.1538
  lon: 9.01887
  location_name: Herning
  phone: ""
djibouti: []

dominica,-commonwealth-of: []

dominican-republic: 
- address: |-
    British Embassy
    Ave 27 de Febrero No 233
    Edificio Corominas Pepin
    Santo Domingo
    Dominican Republic,Santo Domingo
  designation: British Embassy
  lat: 18.4698
  lon: -69.9252
  location_name: Santo Domingo
  phone: (001) (809) 472 7111
- address: |-
    Calle Beller 51,
    Puerto Plata, RD,
  designation: British Honorary Consulate
  lat: 18.4691
  lon: -69.9243
  location_name: Puerto Plata
  phone: ""
ecuador: 
- address: "Citiplaza Building,\r\n\
    Naciones Unidas Avenue. and Rep\xC3\xBAblica de El Salvador, 14th Floor.\r\n\
    (Consular Section 12th floor)\r\n\
    PO Box 17-17-830\r\n\
    Quito\r\n\
    ,Quito"
  designation: British Embassy
  lat: -0.178008
  lon: -78.479
  location_name: Quito
  phone: (593) (2) 2970 800 / 801
- address: "Puerto Ayora\r\n\
    Isla Santa Cruz\r\n\
    Gal\xC3\xA1pagos\r\n\
    ,"
  designation: British Honorary Consulate
  lat: -0.744254
  lon: -90.3149
  location_name: "Gal\xC3\xA1pagos"
  phone: ""
- address: "C/o Agripac\r\n\
    General C\xC3\xB3rdova 623 y Padre Solano\r\n\
    Castilla 8598\r\n\
    ,"
  designation: British Honorary Consulate
  lat: -2.18699
  lon: -79.888
  location_name: Guayaquil
  phone: ""
egypt: 
- address: |-
    Gaddis Hotel
    Khaled Ibn El Walid Street
    Luxor,
  designation: British Honorary Consular-Agent
  lat: 25.696
  lon: 32.6475
  location_name: Luxor
  phone: ""
- address: "\n\
    British Embassy\r\n\
    7 Ahmed Ragheb Street \r\n\
    Garden City\r\n\
    Cairo\r\n\
    Egypt \n\n\n\
    The switchboard number of British Embassy Cairo is (002) (02)\xC2\xA02791 6000. \n\
    ,Cairo"
  designation: British Embassy
  lat: 30.0391
  lon: 31.2318
  location_name: Cairo
  phone: (002) (02) 27916000
el-salvador: 
- address: "\n\
    British Embassy\r\n\
    Torre Futura, Local 11-07\r\n\
    Colonia Escalon, \r\n\
    San Salvador\r\n\
    ,San Salvador"
  designation: British Embassy
  lat: 
  lon: 
  location_name: San Salvador
  phone: ""
equatorial-guinea: []

eritrea: 
- address: |-
    British Embassy
    66-68 Mariam Ghimbi Street
    Zip Code 174
    PO Box 5584
    Asmara
    Eritrea
    ,Asmara
  designation: British Embassy
  lat: 15.3368
  lon: 38.9283
  location_name: Asmara
  phone: (00)(291) 1 12 01 45
estonia: 
- address: |-
    British Embassy
    Wismari 6, Tallinn 10136,Tallinn
  designation: British Embassy
  lat: 59.4315
  lon: 24.7308
  location_name: Tallinn
  phone: (372) 6674700
ethiopia: 
- address: |-
    British Embassy
    Comoros Street
    Addis Ababa
    Postal address:
    PO Box 858,Addis Ababa
  designation: British Embassy
  lat: 9.03053
  lon: 38.7861
  location_name: Addis Ababa
  phone: +251 11 661 2354
falkland-islands: 
- address: |-
    Government House 
    Stanley, FIQQ 1ZZ,Stanley
  designation: Government House
  lat: -51.692
  lon: -57.8734
  location_name: Stanley
  phone: (500) 28200
fiji: 
- address: |-
    Victoria House
    47 Gladstone Road
    PO Box 1355
    Suva
    Fiji
    ,Suva
  designation: British High Commission
  lat: -18.1469
  lon: 178.424
  location_name: Suva
  phone: ""
finland: 
- address: "British Embassy\r\n\
    It\xC3\xA4inen Puistotie 17\r\n\
    00140 Helsinki\r\n\
    Finland,Helsinki"
  designation: British Embassy
  lat: 60.1559
  lon: 24.9619
  location_name: Helsinki
  phone: ""
france: 
- address: "British Embassy\r\n\
    35, rue du Faubourg St Honor\xC3\xA9\r\n\
    75363 Paris Cedex 08 Paris\r\n\
    ,Paris"
  designation: British Embassy
  lat: 48.8693
  lon: 2.31983
  location_name: Paris
  phone: ""
- address: "Consulate General,\xC2\xA016 rue d'Anjou, 75008 Paris\r\n\
    Metro: Madeleine (line 8), Concorde (line 1) or Saint Augustin (line 9)\r\n\
    \r\n\
    Our postal address is: British Embassy, BP111-08, 75363 Paris CEDEX 08,"
  designation: British Consulate-General
  lat: 48.8704
  lon: 2.32121
  location_name: Paris
  phone: ""
- address: "\n\
    British Consulate\r\n\
    24 Avenue de Prado\r\n\
    13006 Marseille \r\n\n\n\
    Email: MarseilleConsular.marseille@fco.gov.uk\r\n\n\n\
    For information on how to apply for visa, please visit our Visas page\r\n\
    ,"
  designation: British Consulate
  lat: 43.2841
  lon: 5.38437
  location_name: Marseille
  phone: ""
- address: "\n\
    353 Boulevard du President Wilson\r\n\
    33073 Bordeaux Cedex\xC2\xA0 \n\n\n\
    Email: postmaster.bordeaux@fco.gov.uk\r\n\n\n\
    \xC2\xA0 \n\n\n\
    \r\n\
    \xC2\xA0 \n\
    ,"
  designation: British Consulate
  lat: 44.8517
  lon: -0.595127
  location_name: Bordeaux
  phone: ""
french-guiana: []

french-polynesia: []

gabon: 
- address: |-
    British Honorary Consul
    c/o Brossette 
    BP 486 
    Libreville
    ,
  designation: British Honorary Consulate
  lat: 0.39284
  lon: 9.45391
  location_name: Libreville
  phone: (241) 762200
gambia: 
- address: |-
    British High Commission
    48 Atlantic Road 
    Fajara (PO Box 507),Banjul
  designation: British High Commission
  lat: 13.4848
  lon: -16.6893
  location_name: Banjul
  phone: (220) 4495133
- address: |-
    c/o British High Commission
    see above address,
  designation: Department for International Development
  lat: 13.4549
  lon: -16.5774
  location_name: Banjul
  phone: ""
georgia: 
- address: "\n\
    British Embassy\r\n\
    51 Krtsanisi street, \r\n\n\
    \t0114 Tbilisi\r\n\
    ,Tbilisi"
  designation: British Embassy
  lat: 41.746
  lon: 44.786
  location_name: Tbilisi
  phone: ""
germany: 
- address: |-
    British Embassy
    Wilhelmstrasse 70
    D-10117 Berlin,Berlin
  designation: British Embassy
  lat: 52.5162
  lon: 13.3808
  location_name: Berlin
  phone: 0049 (0)30 20457-0
- address: |-
    Barclays Capital
    Bockenheimlandstr 38-40 
    60323 Frankfurt am Main
    Germany,
  designation: British Honorary Consulate
  lat: 50.1271
  lon: 8.66263
  location_name: Frankfurt
  phone: ""
- address: "British Consulate-General\r\n\
    M\xC3\xB6hlstr. 5\r\n\
    81675 Munich\r\n\
    Germany\r\n\
    ,"
  designation: British Consulate-General
  lat: 48.1432
  lon: 11.5995
  location_name: Munich
  phone: ""
- address: |-
    Joh.Berenberg,Glossler & Co HG 
    Neuer Jungfernstieg 20 / Fehland Str 6
     20354 HAMBURG 
    ,
  designation: British Consulate
  lat: 52.3925
  lon: 9.80356
  location_name: Hamburg
  phone: ""
- address: |-
    Herrlichkeit 6 
    28199 Bremen,
  designation: British Honorary Consulate
  lat: 53.0733
  lon: 8.80247
  location_name: Bremen
  phone: ""
- address: |-
    Marklerstr 11-14. 
    24159 
    Kiel
    ,
  designation: British Honorary Consulate
  lat: 54.3702
  lon: 10.1421
  location_name: Kiel
  phone: ""
- address: "Yorckstrasse 19 \r\n\
    40476 D\xC3\xBCsseldorf\r\n\
    \r\n\
    ,"
  designation: British Consulate-General
  lat: 51.2464
  lon: 6.79339
  location_name: Dusseldorf
  phone: (49) (211) 94480
- address: |-
    Stafflenbergstrasse 44
    70184 Stuttgart
    ,
  designation: British Honorary Consulate
  lat: 48.8117
  lon: 9.21577
  location_name: Stuttgart
  phone: ""
- address: |-
    M Schmitt & Sohn Gmbh 
    Hadermuhle 9-15
    D-90402 Nuremberg 
    
    ,
  designation: British Honorary Consulate
  lat: 49.4504
  lon: 11.0884
  location_name: Nuremberg
  phone: ""
ghana: 
- address: |-
    British High Commission
    Osu Link
    off Gamel Abdul Nasser Avenue
    PO Box 296
    
    ,Accra
  designation: British High Commission
  lat: 5.5654
  lon: -0.184
  location_name: Accra
  phone: (00) 233 (302) 213250
gibraltar: 
- address: |-
    Office of the Governor
    The Convent 
    Main Street
    Gibraltar,
  designation: 
  lat: 36.1398
  lon: -5.35375
  location_name: Office of the Governor
  phone: ""
greece: 
- address: |-
    Greece, Athens, British Embassy 
    British Embassy
    1 Ploutarchou Street 
    106 75 Athens 
    ,Athens
  designation: British Embassy
  lat: 37.9767
  lon: 23.7458
  location_name: Athens
  phone: ""
- address: |-
    18 Mantzarou Street
    491 00 Corfu,
  designation: British Consulate
  lat: 39.6223
  lon: 19.9195
  location_name: Corfu
  phone: ""
- address: |-
    29 Gr. Lambraki Street
    851 00 Rhodes,
  designation: British Honorary Consulate
  lat: 36.4492
  lon: 28.2223
  location_name: Rhodes
  phone: ""
- address: |-
    Votsi 2
    262 21 Patras
    ,
  designation: British Honorary Vice-Consulate
  lat: 38.2472
  lon: 21.7314
  location_name: Patras
  phone: ""
- address: |-
    British Vice-Consulate
    5 Foskolos Street 
    291 00 Zakynthos
    ,
  designation: British Honorary Vice-Consulate
  lat: 37.7868
  lon: 20.8979
  location_name: Zakynthos
  phone: ""
- address: "43 Tsimiski \xC2\xA0Street\r\n 4th Floor\r\n\
    546 23 \r\n\
    Thessaloniki,"
  designation: British Consulate
  lat: 40.6334
  lon: 22.9425
  location_name: Thessalonika
  phone: ""
- address: "Candia Tower\r\n\
    17 Thalita \xC2\xA0Street\r\n\
    Ag. Dimitrios Sq.\r\n\
    712 02 Heraklion\r\n\
    Crete,"
  designation: British Consulate
  lat: 35.3363
  lon: 25.1309
  location_name: Heraklion (Crete)
  phone: ""
grenada: 
- address: "\n\
    Park Drive\r\n\
    Lance Aux Epines\r\n\
    ,Grenada"
  designation: Honorary British Consul
  lat: 12.0581
  lon: -61.7487
  location_name: St Georges
  phone: +1 (473) 405 8072
guadeloupe: []

guatemala: 
- address: |-
    British Embassy
    Edificio Torre Internacional, Nivel 11
    16 Calle 0-55, Zona 10
    Guatemala City,Guatemala City
  designation: British Embassy
  lat: 14.6564
  lon: -90.4826
  location_name: Guatemala City
  phone: (502) 2380-7300
guinea: 
- address: |-
    BP 6729
    Conakry
    Republic of Guinea
    ,
  designation: Conakry
  lat: 9.5288
  lon: -13.6862
  location_name: Republic of
  phone: ""
guinea-bissau: 
- address: |-
    British Honorary Consul
    Mavegro Int. 
    CP100, Bissau,
  designation: British Honorary Consulate
  lat: 11.8747
  lon: -15.6009
  location_name: Bissau
  phone: 00 245 3201224
guyana: 
- address: |-
    British High Commission
    44 Main Street 
    (PO Box 10849) 
    Georgetown,Georgetown
  designation: British High Commission
  lat: 6.8136
  lon: -58.1548
  location_name: Georgetown
  phone: (592) 226 5881
haiti: 
- address: |-
    British Honorary Consulate
    Port au Prince
    337 Route de Delmas 72-73
    ,Port au Prince
  designation: British Honorary Consulate
  lat: 18.5372
  lon: 72.2943
  location_name: Port-au-Prince
  phone: ""
honduras: 
- address: "Leonardo Casco-Fort\xC3\xADn\r\n\
    British Honorary Consul\r\n\
    Colonia La Reforma,\r\n\
    Calle principal No. 2402\r\n\
    Tegucigalpa, Honduras,"
  designation: British Honorary Consulate
  lat: 14.1332
  lon: 87.1722
  location_name: Tegucigalpa
  phone: ""
- address: |-
    Edgardo Dumas
    British Honorary Consul
    Bufete Dumas Castillo
    2a. Calle, entre 18 y 19 Avenida N.O.
    Colonia Moderna, Casa #182
    San Pedro Sula, Honduras,
  designation: British Honorary Consulate
  lat: 15.5037
  lon: 88.0047
  location_name: San Pedro Sula
  phone: ""
hong-kong: 
- address: |-
    1 Supreme Court Road 
    Hong Kong,Hong Kong
  designation: 
  lat: 22.2765
  lon: 114.165
  location_name: British Consulate-General
  phone: (+852) 2901 3000 including out of hours Consular Emergency Service
hong-kong-(sar-of-china): []

hungary: 
- address: |-
    British Embassy
    Harmincad Utca 6
    Budapest 1051,Budapest
  designation: 
  lat: 47.4974
  lon: 19.0516
  location_name: British Embassy
  phone: ""
iceland: 
- address: "\n\
    British Embassy\r\n\
    Lauf\xC3\xA1svegur 31\r\n\
    101 Reykjav\xC3\xADk\r\n\
    Postal Address: PO Box 460\r\n\
    121 Reykjav\xC3\xADk\r\n\
    \r\n\
    Email: info@britishembassy.is\n\
    ,Reykjav\xC3\xADk"
  designation: British Embassy
  lat: 64.1433
  lon: 21.9377
  location_name: "Reykjav\xC3\xADk"
  phone: ""
- address: |-
    Central Hospital (Fjordungssjukrahusid a Akureyi)
    v/Eyrarlandsveg 
    P O Box 380
    IS-602 Akureyi
    ,
  designation: British Honorary Vice-Consulate
  lat: 65.6738
  lon: 18.0927
  location_name: Akureyri
  phone: ""
india: 
- address: |-
    Ms. Shilpa Caldeira, Head of Consular Section
    British Tourist Assistance Office
    S-13/14 Dempo Towers
    Patto Plaza, Panaji
    Goa- 403001
    ,
  designation: British Tourist Assistance Office
  lat: 15.4956
  lon: 73.8252
  location_name: Goa
  phone: ""
- address: |-
    Prestige Takt
    23 Kasturba Road Cross
    Bangalore 560001
    South India
    India
    
    VFS Office in Bangalore,
  designation: British Deputy High Commission
  lat: 12.9742
  lon: 77.5971
  location_name: Bangalore
  phone: ""
- address: |-
    20 Anderson Road
    Chennai 600 006
    
    VFS Office in Chennai,
  designation: British Deputy High Commission
  lat: 13.0989
  lon: 80.2425
  location_name: Chennai (Madras)
  phone: ""
- address: |-
    1A Ho Chi Minh Sarani
    Kolkata - 700071
    
    VFS Office in Kolkata,
  designation: British Deputy High Commission
  lat: 22.4894
  lon: 88.271
  location_name: Kolkata (Calcutta)
  phone: ""
- address: "\n\
    Naman Chambers, \r\n\
    C/32 G Block Bandra Kurla Complex, \r\n\
    Bandra (East) Mumbai 400 051 \r\n\
    \r\n\
    VFS Office in Mumbai\n\
    ,"
  designation: British Deputy High Commission
  lat: 19.0632
  lon: 72.8626
  location_name: Mumbai (Bombay)
  phone: ""
- address: |-
    British High Commission
    Chanakyapuri
    New Delhi 110021
    
    VFS office in Delhi
    ,New Delhi
  designation: British High Commission
  lat: 28.5981
  lon: 77.1941
  location_name: New Delhi
  phone: (91) (11) 2419 2100
indonesia: 
- address: "\n\
    Jl. Tirta Nadi 2 No. 20\r\n\
    Sanur\r\n\
    Bali\r\n\
    Indonesia \n\
    ,"
  designation: British Consulate
  lat: -8.70487
  lon: 115.254
  location_name: Bali
  phone: ""
- address: |-
    Jl. M.H. Thamrin No 75
    Jakarta 10310
    Indonesia
    ,Jakarta
  designation: British Embassy
  lat: -6.19242
  lon: 106.823
  location_name: Jakarta
  phone: (62) (21) 2356 5200
iran: 
- address: "\n\
    The British Embassy in Tehran has closed. \r\n\
    \r\n\
    British nationals requiring urgent consular assistance can visit the Embassy of any EU Member State in Tehran, or in an emergency call the FCO in London on (+44) 20 7008 1500. \n\
    ,Tehran"
  designation: British Embassy
  lat: 35.6963
  lon: 51.4187
  location_name: Tehran
  phone: ""
iraq: []

ireland: 
- address: |-
    29 Merrion Road 
    Ballsbridge, Dublin 4,
  designation: British Embassy
  lat: 53.3247
  lon: -6.22196
  location_name: Dublin
  phone: (353) (1) 205 3700
israel: 
- address: |-
    Migdalor Building (6th Floor)
    1 Ben Yehuda Street
    Tel Aviv 63801,
  designation: British Consulate
  lat: 32.073
  lon: 34.7685
  location_name: Tel Aviv
  phone: (972) (3) (7251222)
- address: "\n\
    \tBritish Embassy\r\n\
    1 Ben Yehuda Street\r\n\
    Migdalor Building, 15th Floor\r\n\
    Tel Aviv 63801\r\n\n\n\
    Consular Section\r\n\
    1 Ben Yehuda Street\r\n\
    Migdalor Building, 6th Floor\r\n\
    Tel Aviv 63801 \n\
    ,Tel Aviv"
  designation: British Embassy
  lat: 32.0879
  lon: 34.7712
  location_name: Tel Aviv
  phone: ""
italy: 
- address: |-
    Via dei Mille 40
    80121 Naples
    
    UK postal address:
    Consulate 
    BFPO 8 
    London,
  designation: British Consulate
  lat: 40.8366
  lon: 14.2386
  location_name: Naples
  phone: (39) 081 4238911
- address: |-
    British Embassy
    Via XX Settembre 80a 
    I-00187 Roma RM,Rome
  designation: British Embassy
  lat: 41.9044
  lon: 12.4819
  location_name: Rome
  phone: (39) 06 4220 0001 or 4220 + extn if known
- address: |-
    Via San Paolo 7 
    I-20121 Milan,
  designation: British Consulate-General
  lat: 45.4655
  lon: 9.19362
  location_name: Milan
  phone: ""
jamaica: 
- address: |-
    British High Commission
    P O Box 575
    28 Trafalgar Road
    Kingston 10
    Jamaica,Kingston
  designation: British High Commission
  lat: 18.0094
  lon: -76.7842
  location_name: Kingston
  phone: (001) (876) 936 0700
japan: 
- address: |-
    1-2 Kagurazaka
    Shinjyuku-ku
    Tokyo 162-0825,
  designation: British Council
  lat: 35.6991
  lon: 139.741
  location_name: Tokyo
  phone: ""
- address: "\n\
    British Embassy Tokyo\r\n\
    No 1 Ichiban-cho \r\n\
    Chiyoda-ku \r\n\
    Tokyo 102-8381 \n\n\n\
    \tOther locations \xE2\x80\xBA\n\
    ,Tokyo"
  designation: British Embassy
  lat: 35.6874
  lon: 139.744
  location_name: Tokyo
  phone: (+81) (3) 5211-1100
- address: |-
    Epson Osaka Building 19F 
    3-5-1 Bakuro-machi 
    Chuo-ku 
    Osaka 541 - 0059,Osaka
  designation: British Consulate-General
  lat: 34.6787
  lon: 135.501
  location_name: Osaka
  phone: (+81) (6) 6120 5600
jordan: []

kazakhstan: 
- address: |-
    Kazakhstan, British Embassy Office Almaty Samal Towers, 97 Zholdasbekova street 97, Block A2, 9 Floor Microdistrict Samal 2 Almaty 050051
    
    Email:
    AlmatyVisaGeneral@fco.gov.uk
    almaty.consular@fco.gov.uk ,
  designation: Visa and Consular Section
  lat: 43.2342
  lon: 76.9532
  location_name: Almaty
  phone: + 7 573 1502200
- address: "\n\
    British Embassy, Astana\r\n\
    62, Kosmonavtov Street\r\n\
    ukinkz@fco.gov.uk\n\n\n\
    British Embassy Office, Almaty\r\n\
    Samal Towers, 97 Zholdasbekova street,\r\n\
    Block A2, 9 Floor, 050051\r\n\
    almaty.consular@fco.gov.uk \xC2\xA0\n\
    ,Astana"
  designation: British Embassy
  lat: 51.1445
  lon: 71.4293
  location_name: Astana
  phone: +7 (7172) 556200
kenya: 
- address: "\n\
    James Knight, British Honorary Consul\r\n\
    P.O. Box 85593, 80100\r\n\
    Mombasa\r\n\
    Email: James.Knight-HonCon@fconet.fco.gov.uk\n\n\n\
    Hugh Walters, Deputy Honorary Consul\r\n\
    P.O. Box 85785, 80100\r\n\
    Mombasa\r\n\
    Email: Hugh.CharlesWalters-HonCon@fconet.fco.gov.uk\n\n\n\
    Valerie Knight \xC2\xA0\r\n\
    PO Box 85593 \r\n\
    Mombasa\r\n\
    \r\n\
    Location: HB Consular Office\r\n\
    Cotts House\r\n\
    Moi Avenue, Mombasa\r\n\
    Email address: Valerie.Knight@fco.gov.uk\r\n\
    Telephone office : 2220023 \n\
    ,Mombasa"
  designation: British Honorary Consulate
  lat: -4.06098
  lon: 39.6621
  location_name: Mombasa
  phone: "2220023"
- address: "\n\
    British High Commission\r\n\
    Upper Hill Road\r\n\
    P.O. Box 30465-00100\r\n\
    Nairobi\n\n\n\
    Email: nairobi.bhc@gmail.com\n\
    ,"
  designation: British High Commission
  lat: -1.29649
  lon: 36.817
  location_name: Nairobi
  phone: (+254) (20) 2844000
kiribati: 
- address: |-
    Non-resident British High Commissioner 
    (resides in Suva, Fiji)
    
    British High Commission
    Victoria House
    47 Gladstone Road
    PO Box 1355
    Suva
    Fiji
    ,Suva
  designation: Suva
  lat: -18.1416
  lon: 178.442
  location_name: British High Commission
  phone: ""
korea: 
- address: |-
    British Embassy Pyongyang
    Munsu-dong Diplomatic Compound
    Pyongyang
    Democratic People's Republic of Korea,Pyongyang
  designation: Pyongyang
  lat: 37.5669
  lon: 126.975
  location_name: DPR (North Korea)
  phone: +850 2 381 7980
- address: "\n\
    British Embassy Seoul\r\n\
    Sejong-daero 19-gil 24\r\n\
    Jung-gu, Seoul\r\n\
    100-120\n\
    ,Seoul"
  designation: Seoul
  lat: 37.5669
  lon: 126.975
  location_name: Republic of (South Korea)
  phone: (+82) (2) 3210 5500
- address: |-
    Honorary Consul Pusan,12th Floor, Yuchang Building,
    25-2 Chungang-Dong 4-Ga,
    Chung-Gu
    Pusan
    Korea,
  designation: Pusan
  lat: 35.1062
  lon: 129.037
  location_name: Republic of (South Korea)
  phone: ""
kosovo: []

kuwait: 
- address: |-
    British Embassy
    Arabian Gulf Street
    Dasman
    
    Postal Address
    British Embassy
    P O Box 2
    Safat 13001 
    Kuwait
    
    Visa application centre:
    UK visa application Centre 4B 
    1st Floor, Al Banwan Building, Al Qibla Area Ali 
    Al Salem Street , Opposite the Central Bank of Kuwait, 
    Kuwait City 
    VAC website 
    Telephone:
    2297 1170 and 2247 7490
    
    Email: General enquiries
    ,Kuwait City
  designation: 
  lat: 29.3895
  lon: 48.0028
  location_name: British Embassy
  phone: (965) 2259 4320
kyrgyzstan: 
- address: |-
    19 Logvinenko Street
    crn of Bokanbayev
    Bishkek,
  designation: Department for International Development
  lat: 51.1445
  lon: 71.4293
  location_name: Bishkek
  phone: ""
laos: []

latvia: 
- address: "\n\
    British Embassy\r\n\
    5, J. Alunana Street\r\n\
    Riga LV-1010 \r\n\
    ,Riga"
  designation: British Embassy
  lat: 56.9567
  lon: 24.1104
  location_name: Riga
  phone: ""
lebanon: 
- address: |-
    Embassies Complex,
    Armies Street, 
    Zkak Al-Blat, 
    Serail Hill, 
    PO Box 11-471,
    Beirut
    ,Beirut
  designation: British Embassy
  lat: 33.8892
  lon: 35.513
  location_name: Beirut
  phone: +961 (1) 9608 00 (24 hours)
lesotho: []

liberia: []

libya: 
- address: "\n\
    British Embassy, \r\n\
    24th Floor \r\n\
    Tripoli Towers (formerly Bourj al Fateh)\r\n\
    Tripoli\r\n\
    Libya \n\
    ,Tripoli"
  designation: British Embassy
  lat: 32.8949
  lon: 13.1977
  location_name: Tripoli
  phone: +218 21 335 1084
liechtenstein: []

lithuania: 
- address: |-
    British Embassy,
    Antakalnio str.2
    LT-10308 Vilnius
    ,Vilnius
  designation: 
  lat: 54.6938
  lon: 25.3048
  location_name: British Embassy
  phone: (370) 5 246 29 00
luxembourg: 
- address: |-
    British Embassy
    5 Boulevard Joseph II, L-1840 
    Luxembourg,Luxembourg
  designation: 
  lat: 49.6082
  lon: 6.12084
  location_name: British Embassy
  phone: ""
macao: []

macedonia: []

madagascar: []

malawi: []

malaysia: []

maldives: []

mali: []

malta: []

marshall-islands: []

martinique: []

mauritania: []

mauritius: 
- address: "\n\
    7th Floor\r\n\
    Les Cascades Building\r\n\
    Edith Cavell Street\r\n\
    Port Louis \n\n\n\
    Tel: (230) 202 9400\r\n\
    Fax: (230) 202 9408 \n\
    \r\n\
    ,Port Louis"
  designation: 
  lat: -20.1658
  lon: 57.5023
  location_name: 
  phone: (230) 202 9400
mayotte: []

mexico: 
- address: "Blvd Salinas, No. 1500\r\n\
    Fracc. Aviaci\xC3\xB3n Tijuana,\r\n\
    CP. 22420, Tijuana, Baja California\r\n\
    M\xC3\xA9xico \r\n\
    ,"
  designation: British Honorary Consulate
  lat: 32.5147
  lon: -117.008
  location_name: Tijuana
  phone: (52) (664) 686 5320
- address: "The Royal Sands\r\n\
    Blvd Kukulkan, Km 13.5,\r\n\
    Zona Hotelera,\r\n\
    CP. 77500, Cancun, Quintana Roo\r\n\
    M\xC3\xA9xico\r\n\
    \r\n\
    Email: consular.mexico@fco.gov.uk\r\n\
    ,"
  designation: British Honorary Consulate
  lat: 21.0972
  lon: -86.7654
  location_name: Cancun
  phone: ""
micronesia: []

moldova: 
- address: |-
    British Embassy Chisinau
    18 Nicolae Iorga str.
    Chisinau, MD-2012 
    Republic of Moldova,Chisinau
  designation: British Embassy
  lat: 47.0227
  lon: 28.8238
  location_name: Chisinau
  phone: ""
monaco: []

mongolia: 
- address: "\n\
    Peace Avenue 30\r\n\
    Bayanzurkh District\r\n\
    Ulaanbaatar 13381 \n\
    ,Ulaanbaatar"
  designation: British Embassy
  lat: 47.9194
  lon: 106.941
  location_name: Ulaanbaatar
  phone: (+976) (11) 458133
montenegro: 
- address: "\n\
    British Embassy\r\n\
    Ulcinjska 8\r\n\
    Gorica C\r\n\
    81000 Podgorica\r\n\
    Montenegro \n\
    ,Podgorica"
  designation: British Embassy
  lat: 42.4432
  lon: 19.2739
  location_name: Podgorica
  phone: +382 (0) 20 618 010
montserrat: 
- address: |-
    The Governor's Office
    8 Farara Plaza
    Brades
    Montserrat,Brades
  designation: The Governor's Office
  lat: 16.7927
  lon: -62.2105
  location_name: Brades
  phone: (1) (664) 491 2688/9 Office<br>
morocco: 
- address: "\n\
    British Embassy\xC2\xA0\xC2\xA0\xC2\xA0\xC2\xA0\xC2\xA0\xC2\xA0\xC2\xA0\xC2\xA0\xC2\xA0\xC2\xA0\xC2\xA0\xC2\xA0\xC2\xA0\xC2\xA0\xC2\xA0\xC2\xA0\xC2\xA0\xC2\xA0\xC2\xA0\xC2\xA0\xC2\xA0\xC2\xA0\xC2\xA0\xC2\xA0\xC2\xA0\xC2\xA0\xC2\xA0\xC2\xA0\xC2\xA0\xC2\xA0\xC2\xA0\xC2\xA0\xC2\xA0\xC2\xA0\xC2\xA0\xC2\xA0\xC2\xA0\xC2\xA0 \xC2\xA0\r\n\
    28 Avenue S.A.R. Sidi Mohammed\xC2\xA0\xC2\xA0\xC2\xA0\xC2\xA0\xC2\xA0\xC2\xA0\xC2\xA0\xC2\xA0\xC2\xA0\xC2\xA0 \xC2\xA0\r\n\
    Soussi 10105 (BP 45)\r\n\
    Rabat \n\
    ,Rabat"
  designation: British Embassy
  lat: 34.0208
  lon: -6.82397
  location_name: Rabat
  phone: +212 (0)537 63 33 33
- address: |-
    Villa Les Sallurges
    36 rue de la Loire, Polo.
    Casablanca ,
  designation: British Consulate-General
  lat: 33.5944
  lon: -7.62837
  location_name: Casablanca
  phone: ""
- address: |-
    Trafalgar House
    9 Rue de l'Amerique du Sud
    Tangier 90000
    PO Box: 1203
    ,
  designation: British Honorary Consulate
  lat: 35.7778
  lon: -5.80627
  location_name: Tangier
  phone: ""
- address: |-
    British Consulate 
    English Pub
    Boulevard 20 Aout
    Agadir
    ,
  designation: British Honorary Consulate
  lat: 30.4157
  lon: -9.5948
  location_name: Agadir
  phone: ""
- address: |-
    55 Boulevard Zerktouni 
    Residence Taib 
    Marrakech ,
  designation: British Honorary Consulate
  lat: 31.636
  lon: -8.01449
  location_name: Marrakech
  phone: ""
mozambique: 
- address: |-
    British High Commission
    Av Vladimir I Lenine, 310
    (CP 55) Maputo
    Mozambique
    
    
    ,Maputo
  designation: British High Commission
  lat: -25.926
  lon: 32.6114
  location_name: Maputo
  phone: + (258) 21 356 000
namibia: 
- address: |-
    British High Commission
    P O Box 22202
    116 Robert Mugabe Avenue
    Namibia,Windhoek
  designation: High Commission
  lat: -22.5615
  lon: 17.0866
  location_name: Windhoek
  phone: (264) (61) 274800
nauru: []

nepal: 
- address: "\n\
    P O Box 106\r\n\
    Lainchaur \n\n\n\
    General Enquiries - BEKathmandu@fco.gov.uk\n\n\n\
    Consular Enquiries - Ktm.Consular@fco.gov.uk\r\n\n\
    ,Kathmandu"
  designation: British Embassy
  lat: 27.7207
  lon: 85.3171
  location_name: Kathmandu
  phone: (977) (1) 4410583
netherlands: 
- address: |-
    Koningslaan 44 
    1075 AE Amsterdam 
    (PO Box 75488, 1070 AL Amsterdam),
  designation: British Consulate-General
  lat: 52.3557
  lon: 4.86289
  location_name: Amsterdam
  phone: ""
- address: |-
    British Embassy
    Lange Voorhout 10
    2514 ED The Hague
    
    ,The Hague
  designation: British Embassy
  lat: 52.0821
  lon: 4.31063
  location_name: The Hague
  phone: +31 (0)70 4270 427
new-caledonia: []

new-zealand: 
- address: |-
    British High Commission
    Wellington
    44 Hill Street
    Wellington 6011
    
    Mailing Address:
    P O Box 1812
    Wellington 6140,Wellington
  designation: British High Commission
  lat: -41.2767
  lon: 174.775
  location_name: Wellington
  phone: ""
- address: "\n\
    Level 17 \r\n\
    151 Queen Street \r\n\
    Auckland 1010\n\n\n\
    \tMailing Address:\r\n\
    Private Bag 92014\r\n\
    Victoria St West\r\n\
    Auckland 1142\n\
    ,"
  designation: British Consulate-General
  lat: -36.8467
  lon: 174.766
  location_name: Auckland
  phone: ""
nicaragua: 
- address: |-
    Taboada & Asociados
    Avenida Bolivar # 1947, del hospital Militar 1 cuadra al Lago,
    Managua, Nicaragua,Managua
  designation: British Honorary Consulate
  lat: 12.1359
  lon: -86.2753
  location_name: Managua
  phone: (00) (505) 254 5454 / 3839
niger: []

nigeria: 
- address: |-
    British Deputy High Commission
    11 Walter Carrington Crescent
    Victoria Island
    Lagos,
  designation: British Deputy High Commission
  lat: 6.43862
  lon: 3.40832
  location_name: Lagos
  phone: "(1) 277 0780 \xE2\x80\x93 2"
- address: |-
    British High Commission (Management and Visa Sections)
    Dangote House
    Aguiyi Ironsi Street
    Wuse
    Abuja,Abuja
  designation: British High Commission
  lat: 9.08354
  lon: 7.48856
  location_name: Abuja
  phone: +234(0) 8160340925
- address: |-
    Rotimi Williams Avenue 
    Bodija 
    Ibadan,
  designation: British Liaison Office
  lat: 7.4517
  lon: 3.8902
  location_name: Ibadan
  phone: ""
north-korea: []

norway: 
- address: "\n\
    \tPostal Address:\r\n\
    British Embassy 0244, Oslo\r\n\
    \r\n\
    Visiting Address:\r\n\
    Thomas Heftyes gate 8, Oslo\r\n\
    \r\n\
    Email: britemb@online.no\n\
    ,Oslo"
  designation: British Embassy
  lat: 59.9167
  lon: 10.706
  location_name: Oslo
  phone: ""
- address: "\xC3\x98vre Ole Bulls Plass 1 - 1etg\r\n\
    P O Boks 273\r\n\
    5804 Bergen,"
  designation: British Consulate
  lat: 60.3927
  lon: 5.32193
  location_name: Bergen
  phone: ""
- address: "c/o A/S Mack's \xC3\x98lbryggeri\r\n\
    Storgata 5-13\r\n\
    9008 Troms\xC3\xB8\r\n\
    \r\n\
    Postal address:\r\n\
    c/o A/S Mack's \xC3\x98lbryggeri \r\n\
    Post Boks 6142\r\n\
    9291 Troms\xC3\xB8\r\n\
    ,"
  designation: British Honorary Consulate
  lat: 69.6466
  lon: 18.9517
  location_name: "Troms\xC3\xB8"
  phone: ""
- address: |-
    c/o R Kjeldsberg AS 
    Beddingen 8
    7014 Trondheim
    ,
  designation: British Consulate
  lat: 63.4355
  lon: 10.4129
  location_name: Trondheim
  phone: ""
- address: |-
    Post Box 479
    4664 Kristiansand 
    
    Visiting address:
    Tangen 10
    4610 Kristiansand
    ,
  designation: British Honorary Consulate
  lat: 58.1475
  lon: 8.00933
  location_name: Kristiansand
  phone: ""
- address: "Visiting and Postal:\r\n\
    Byggcon AS\r\n\
    Notveien 17\r\n\
    8103 Bod\xC3\xB8\r\n\
    ,"
  designation: British Honorary Consulate
  lat: 67.276
  lon: 14.4611
  location_name: "Bod\xC3\xB8"
  phone: ""
- address: |-
    Prinsensgate 12
    4008 Stavanger
    
    Postal address:
    PO Box 28
    4001 Stavanger
    ,
  designation: British Consulate
  lat: 58.9665
  lon: 5.72703
  location_name: Stavanger
  phone: ""
- address: "Farstadg\xC3\xA5rden\r\n\
    St Olav's Plass\r\n\
    6001 \xC3\x85lesund\r\n\
    \r\n\
    Postal addres:\r\n\
    Postboks 1301\r\n\
    6001 \xC3\x85lesund\r\n\
    ,"
  designation: British Consulate
  lat: 62.4732
  lon: 6.155
  location_name: Alesund
  phone: ""
oman: []

pakistan: 
- address: "\n\
    British High Commission\r\n\
    Diplomatic Enclave\r\n\
    Ramna 5\r\n\
    P O Box 1122\r\n\
    Islamabad \n\n\n\
    \t\r\n\n\n\
    \xC2\xA0 \n\
    ,Islamabad"
  designation: British High Commission
  lat: 33.7244
  lon: 73.111
  location_name: Islamabad
  phone: 00 92 51 201 2000
- address: |-
    Shahrah-e-Iran 
    Clifton 
    Karachi 75600,
  designation: British Deputy High Commission
  lat: 24.8177
  lon: 67.029
  location_name: Karachi
  phone: (92) (21) 35827000
palau: []

panama: 
- address: |-
    British Embassy
    MMG Tower, 4th Floor
    Calle 53, Marbella
    (PO Box 0816-07946)
    Panama City,Panama City
  designation: British Embassy
  lat: 9.07424
  lon: -79.458
  location_name: Panama City
  phone: (507) 297 6550
papua-new-guinea: 
- address: "\n\
    British High Commission\r\n\
    Port Moresby\r\n\
    Sec 411 Lot 1 & 2 \r\n\
    Kiroki Street\r\n\
    Waigani\r\n\
    Port Moresby\r\n\
    ,Port Moresby"
  designation: British High Commission
  lat: -9.4341
  lon: 147.192
  location_name: Port Moresby
  phone: (+675) 325 1677
paraguay: 
- address: "Eulogio Estigarribia\r\n\
    4846 C/Monse\xC3\xB1or Bogarin\r\n\
    Asunci\xC3\xB3n\r\n\
    Paraguay,"
  designation: British Honorary Consulate
  lat: -25.3004
  lon: -57.6362
  location_name: "Asunci\xC3\xB3n"
  phone: ""
peru: 
- address: |-
    British Embassy
    Torre Parque Mar (22nd Floor)
    Avenida Jose Larco, 1301
    Miraflores
    ,Lima
  designation: British Embassy
  lat: -12.131
  lon: -77.0297
  location_name: Lima
  phone: (51) (1) 617 3000
- address: |-
    Calle Clorinda Matto de Turner 330,
    1era Etapa
    Urb.Magisterial
    Cusco,Cusco
  designation: British Honorary Consulate
  lat: -13.5249
  lon: -71.9721
  location_name: Cusco
  phone: ""
philippines: []

pitcairn: []

poland: 
- address: |-
    British Embassy
    ul. Kawalerii 12
    00-468 Warsaw
    ,Warsaw
  designation: British Embassy
  lat: 52.2184
  lon: 21.0398
  location_name: Warsaw
  phone: (48 22) 311 00 00
portugal: 
- address: |-
    Rua da Alfandega 10, 3C
    9000-059 Funchal
    Madeira,
  designation: British Honorary Consulate
  lat: 32.6476
  lon: -16.9077
  location_name: Funchal (Madeira)
  phone: ""
- address: "\n\
    Apartado 609\r\n\
    Edificio A Fabrica\r\n\
    Avenida Guanar\xC3\xA9\r\n\
    8501-915 Portim\xC3\xA3o \n\n\n\
    GPS co-ordinates: 37.07 56N 08.32 08W\r\n\
    ,"
  designation: British Consulate
  lat: 37.1319
  lon: -8.53549
  location_name: "Portim\xC3\xA3o"
  phone: ""
- address: "Travessa Bar\xC3\xA3o de Forrester, 10 \r\n\
    4400 - 034 Vila Nova de Gaia,"
  designation: Honorary Consulate
  lat: 41.1345
  lon: -8.61731
  location_name: Oporto
  phone: ""
- address: "Rua de S\xC3\xA3o Bernardo No 33 \r\n\
    1249-082 Lisbon\r\n\
    ,"
  designation: British Consulate
  lat: 38.7162
  lon: -9.15737
  location_name: Lisbon
  phone: ""
- address: "Rua de S\xC3\xA3o Bernardo 33 \r\n\
    1249-082,Lisbon"
  designation: British Embassy
  lat: 38.7162
  lon: -9.15737
  location_name: Lisbon
  phone: 351 21 392 4000
- address: |-
    Rua Domingos Rebelo, 43A
    9500-234 Ponta Delgada
    S. Miguel - Azores
    ,
  designation: British Honorary Consulate
  lat: 37.7488
  lon: -25.7146
  location_name: S. Miguel (Azores)
  phone: ""
qatar: 
- address: "\n\
    British Embassy, PO Box 3, Doha \n\n\n\
    Location: West Bay, off Wahda St near Rainbow roundabout. Location map\n\n\n\
    Visa Applications Centre (VAC): Sherif Building, by Toyota Towers. See the VAC website or call 4462 2159 / 4462 1544.\r\n\
    ,Doha"
  designation: British Embassy
  lat: 25.3493
  lon: 51.5166
  location_name: Doha
  phone: (974) 4496 2000
reunion: []

romania: 
- address: "British Embassy, 24\xC2\xA0Jules Michelet\r\n\
    010463 Bucharest, Romania,Bucharest"
  designation: British Embassy
  lat: 44.4442
  lon: 26.1008
  location_name: Bucharest
  phone: (40) (21) 201 7200
russian-federation: 
- address: "\n\
    15a Gogol Street \r\n\
    620075 Ekaterinburg\n\n\n\
    Email\n\
    ,"
  designation: British Consulate-General
  lat: 56.8356
  lon: 60.6112
  location_name: Ekaterinburg
  phone: + 7 (343) 253 5600
- address: "\n\
    British Embassy Moscow\r\n\
    Smolenskaya Naberezhnaya 10\r\n\
    Moscow 121099\n\
    ,Moscow"
  designation: British Embassy
  lat: 55.7546
  lon: 37.577
  location_name: Moscow
  phone: ""
- address: "\n\
    PL Proletarskoy Diktatury 5\r\n\
    191124 St Petersburg \n\n\n\
    Email:\r\n\
    information.stpetersburg@fco.gov.uk\r\n\
    commercial.stpetersburg@fco.gov.uk\r\n\n\n\
    For consular queries:\r\n\
    russiaconsular@fco.gov.uk\r\n\
    ,"
  designation: British Consulate-General
  lat: 59.9481
  lon: 30.3908
  location_name: St Petersburg
  phone: (7) (812) 320 3200
rwanda: 
- address: |-
    British High Commission
    Parcelle No 1131
    Boulevard de l'Umuganda
    Kacyiru-Sud
    BP 576 Kigali
    ,Kigali
  designation: British High Commission
  lat: -1.959
  lon: 30.1085
  location_name: Kigali
  phone: ""
samoa: []

san-marino: []

sao-tome-and-principe: []

saudi-arabia: 
- address: "\n\
    British Embassy\r\n\
    PO Box 94351\r\n\
    Riyadh 11693\r\n\
    Saudi Arabia \n\
    ,Riyadh"
  designation: British Embassy
  lat: 24.6876
  lon: 46.6298
  location_name: Riyadh
  phone: +966 (0) 1 488 0077
- address: |-
    British Consulate General
    Jeddah 21411, P.O. Box 393
    Saudi Arabia,
  designation: British Consulate-General
  lat: 21.4352
  lon: 39.7979
  location_name: Jeddah
  phone: ""
senegal: 
- address: |-
    British Embassy
    20 Rue du Docteur Guillet 
    Boite Postale 6025 
    Dakar
    ,Dakar
  designation: British Embassy
  lat: 14.6597
  lon: -17.4355
  location_name: Dakar
  phone: (221) 33 823 7392
serbia: 
- address: |-
    British Embassy
    Resavska 46
    11000 Belgrade,Belgrade
  designation: British Embassy
  lat: 44.8004
  lon: 20.4566
  location_name: Belgrade
  phone: (381) (11) 2645 055
seychelles: 
- address: |-
    British High Commission
    3rd floor, Oliaji Trade Centre
    Francis Rachel Street
    Victoria, Mahe
    
    Email:
    bhcvictoria@fco.gov.uk
    ,
  designation: British High Commission
  lat: -4.62474
  lon: 55.4529
  location_name: Victoria
  phone: (248) 4283 666
sierra-leone: 
- address: "\n\
    6 Spur Road\r\n\
    Freetown\r\n\
    \r\n\
    Email:\t\r\n\n\n\
    Assistance to British Nationals\n\
    General non-consular / visa enquiries\n\n\
    Passport Enquiries\r\n\n\
    UK Visa Enquiries\n\
    ,Freetown"
  designation: British High Commission
  lat: 8.47161
  lon: -13.2708
  location_name: Freetown
  phone: +232 (0) 768025634
singapore: 
- address: "\n\
    \tBritish High Commission\r\n\
    Singapore\r\n\
    100 Tanglin Road \r\n\
    Singapore 247919 \n\
    ,Singapore"
  designation: 
  lat: 1.3046
  lon: 103.821
  location_name: British High Commission
  phone: (+65) 6424 4200
slovakia: 
- address: |-
    British Embassy
    Panska 16
    811 01 Bratislava 
    ,Bratislava
  designation: British Embassy
  lat: 48.1974
  lon: 16.3818
  location_name: Bratislava
  phone: ""
slovenia: 
- address: |-
    British Embassy
    4th floor Trg Republike 3
    1000 Ljubljana,Ljubljana
  designation: "\xC2\xA0British Embassy"
  lat: 46.0513
  lon: 14.5003
  location_name: "\xC2\xA0Ljubljana"
  phone: (00) (386) (1) 200 3910
solomon-islands: 
- address: |-
    British High Commission Honiara
    Residence of the British High Commissioner
    Tanuli Ridge
    P.O. Box 676
    Honiara,Honiara
  designation: British High Commission
  lat: -9.42836
  lon: 159.937
  location_name: Honiara
  phone: (+677) 21705
somalia: []

south-africa: 
- address: "British High Commission\r\n\
    255 Hill Street,Arcadia 0002, Pretoria, South Africa\r\n\
    \r\n\
    Consular Section: 256 Glyn Street, Hatfield 0083,\xC2\xA0South Africa,Pretoria"
  designation: British High Commission
  lat: -25.7457
  lon: 28.227
  location_name: Pretoria
  phone: (27) (12) 421 7500
- address: |-
    Trade & Investment Durban 
    South Africa, Durban, UK Trade & Investment 
    Address: 
    FWJK Court
    86 Armstrong Avenue
    La Lucia Ridge, 4051
    
    Postal Address:
    PO Box 20143
    Durban North, 4016 
    ,
  designation: UK Trade &amp; Investment
  lat: -29.7447
  lon: 31.0672
  location_name: Durban
  phone: ""
- address: "The Consulate Offices closed on 31 January 2010 in Port Elizabeth. \xC2\xA0British nationals requiring assistance should contact our Consulate in Cape Town in the first instance.,"
  designation: Honorary Consul
  lat: -33.9467
  lon: 25.5652
  location_name: Port Elizabeth
  phone: ""
- address: "\n\
    2nd Floor Sanlam Building\r\n\
    353 Festival Street\r\n\
    Cnr Arcadia, Hatfield 0083 \n\n\n\
    \xC2\xA0 \n\
    ,"
  designation: Department for International Development (Southern Africa)
  lat: -25.7457
  lon: 28.2421
  location_name: Pretoria
  phone: ""
south-georgia-and-south-sandwich-islands: []

south-sudan: 
- address: "\n\
    British Embassy, Juba\r\n\
    EU Compound\r\n\
    Thom ping\r\n\
    Juba\r\n\
    South Sudan\n\n\n\
    email address:\n\
    \t\tukinsouthsudan@dfid.gov.uk\n\
    ,Juba"
  designation: British Embassy
  lat: -1.959
  lon: 30.1085
  location_name: Juba
  phone: ""
spain: 
- address: "\n\
    British Consulate\r\n\
    Torre Espacio\r\n\
    Paseo de la Castellana 259D\r\n\
    28046 Madrid\r\n\
    \r\n\
    Emergency consular assistance (eg. arrest, death, hospitalisation) \n\
    ,Madrid"
  designation: British Consulate General
  lat: 40.4803
  lon: -3.68591
  location_name: Madrid
  phone: ""
- address: "Edificio Catalu\xC3\xB1a \r\n\
    Calle Luis Morote 6-3\xC2\xBA \r\n\
    35007 - Las Palmas de Gran Canaria,"
  designation: British Consulate
  lat: 28.1414
  lon: -15.4303
  location_name: Las Palmas (Canary Islands)
  phone: (34) 092 109 356
- address: "Alameda de Urquijo 2, 8\xC2\xBA\r\n\
    48008 Bilbao\r\n\
    Vizcaya,"
  designation: British Consulate
  lat: 43.2616
  lon: -2.9297
  location_name: Bilbao
  phone: ""
- address: "\n\
    British Embassy\r\n\
    Torre Espacio\r\n\
    Paseo de la Castellana 259D\r\n\
    28046 Madrid\n\n\n\
    \r\n\n\
    ,Madrid"
  designation: British Embassy
  lat: 40.4784
  lon: -3.68636
  location_name: Madrid
  phone: ""
- address: "Avenida Isidoro Macabich, 45-1\xC2\xBA \r\n\
    Apartado 307\r\n\
    07800 Ibiza\r\n\
    ,"
  designation: British Consulate
  lat: 38.91
  lon: 1.42627
  location_name: Ibiza
  phone: ""
- address: "Convent dels Caputxins, 4 \r\n\
    Edificio Orisba B - 4\xC2\xBAD \r\n\
    07002 Palma de Mallorca\r\n\
    Mallorca,"
  designation: British Consulate
  lat: 39.5748
  lon: 2.65363
  location_name: Palma de Mallorca
  phone: ""
- address: "Plaza Weyler 8, 1\xC2\xBA \r\n\
    Santa Cruz de Tenerife 38003\r\n\
    ,"
  designation: British Consulate
  lat: 28.468
  lon: -16.2557
  location_name: Tenerife (Canary Islands)
  phone: ""
- address: "British Consulate\r\n\
    Edificio Eurocom, Bloque Sur\r\n\
    Calle Mauricio Moro Pareto 2-2\xC2\xB0\r\n\
    29006 M\xC3\xA1laga\r\n\
    Spain\r\n\
    ,"
  designation: British Consulate
  lat: 36.7135
  lon: -4.43447
  location_name: Malaga
  phone: ""
- address: |-
    Plaza Calvo Sotelo 1-2 
    Apartado De Correos 564
    03001 Alicante
    ,
  designation: British Consulate
  lat: 38.3434
  lon: -0.48749
  location_name: Alicante
  phone: ""
- address: |-
    Avenida Diagonal, 477, 13a planta
    08036 Barcelona,
  designation: British Consulate-General
  lat: 41.3928
  lon: 2.14581
  location_name: Barcelona
  phone: ""
sri-lanka: 
- address: |-
    389 Bauddhaloka Mawatha
    Colombo - 7,Colombo
  designation: British High Commission
  lat: 6.90589
  lon: 79.8728
  location_name: Colombo
  phone: +94 (0) 11 5390639
st-helena: 
- address: |-
    Governor's Office
    The Castle
    Jamestown
    St Helena Island
    South Atlantic Ocean
    
    Chief Secretary's Office:
    The Castle 
    Jamestown 
    St Helena Island
    South Atlantic Ocean,
  designation: Governor's Office
  lat: -15.9387
  lon: -5.7162
  location_name: Jamestown
  phone: 00 (290) 2555
st-kitts-and-nevis: []

st-lucia: 
- address: "\n\
    Francis Compton Building\r\n\
    2nd Floor\r\n\
    (PO Box 227)\r\n\
    Waterfront\r\n\
    Castries\r\n\
    St Lucia\n\n\n\
    Email: britishhc@candw.lc\r\n\
    ,"
  designation: British High Commission
  lat: 14.0144
  lon: -60.9913
  location_name: Castries
  phone: ""
st-maarten: []

st-pierre-and-miquelon: []

st-vincent-and-the-grenadines: []

sudan: []

suriname: []

swaziland: 
- address: "\n\
    Honorary Consul Swaziland \n\
    ,"
  designation: 
  lat: -26.3206
  lon: 31.1434
  location_name: Mbabane
  phone: 0027 (0)12 421 7800
sweden: 
- address: "British Embassy\r\n\
    Skarp\xC3\xB6gatan 6-8\r\n\
    Box 27819\r\n\
    115 93 Stockholm,Stockholm"
  designation: British Embassy
  lat: 59.3341
  lon: 18.1068
  location_name: Stockholm
  phone: ""
switzerland: 
- address: |-
    British Embassy
    Thunstrasse 50, 3005 Berne,Berne
  designation: British Embassy
  lat: 46.9328
  lon: 7.48226
  location_name: Berne
  phone: ""
syria: 
- address: "The British Embassy Damascus has suspended all services and all Diplomatic personnel have been withdrawn from Syria.\r\n\
    \r\n\
    Those who choose to remain in Syria or to visit against our advice should be aware that we cannot provide consular assistance or service in Syria.\r\n\
    \r\n\
    Any British nationals requiring urgent consular assistance can visit the Embassy of any EU Member State in Damascus, or in an emergency call the FCO in London on (+44) 20 7008 1500.\r\n\
    \r\n\
    British nationals should also register with us using our on LOCATE service, by email to Consular Enquiries Damascus or by telephone (+44) 20 7008 1500.\xC2\xA0 \r\n\
    ,Damascus"
  designation: British Embassy
  lat: 3.51976
  lon: 36.2772
  location_name: Damascus
  phone: ""
taiwan: 
- address: |-
    26th Floor
    President International Tower
    Number 9 - 11 Song Gao Road
    Xin Yi District
    Taipei, 11073,Taipei
  designation: British Trade &amp; Cultural Office
  lat: 25.0396
  lon: 121.569
  location_name: Taipei
  phone: (+886) (2) 8758 2088
- address: |-
    7F-D
    95 Ming Tsu 2nd Road
    Kaoshiung
    Taiwan 800,
  designation: British Council
  lat: 22.6831
  lon: 120.317
  location_name: Kaohsiung
  phone: ""
tajikistan: 
- address: |-
    British Embassy
    65 Mirzo Tursunzade Street
    Dushanbe 734002, Tajikistan 
    Email: dushanbe.reception@fco.gov.uk ,Dushanbe
  designation: British Embassy
  lat: 38.5841
  lon: 68.7945
  location_name: Dushanbe
  phone: (992 37)2 24 22 21/24 14 77/51 01 92/51 01 87
tanzania: 
- address: |-
    British High Commission
    Umoja House
    Garden Avenue
    PO Box 9200
    Dar es Salaam,Dar Es Salaam
  designation: British High Commission
  lat: -6.81245
  lon: 39.2917
  location_name: Dar es Salaam
  phone: 255 (0) 22 229 0000
- address: |-
    5th Floor
    Umoja House
    Garden Avenue
    PO Box 9200
    Dar es Salaam,
  designation: Department for International Development (Eastern Africa)
  lat: -6.81245
  lon: 39.2917
  location_name: Dar es Salaam
  phone: ""
thailand: 
- address: |-
    14 Wireless Road 
    Lumpini, Pathumwan
    Bangkok 10330,Bangkok
  designation: British Embassy
  lat: 13.744
  lon: 100.543
  location_name: Bangkok
  phone: ""
- address: |-
    198 Bumrungraj Road
    Muang
    Chiang Mai 50000,Chiang Mai
  designation: British Consulate
  lat: 18.7974
  lon: 99.0085
  location_name: Chiang Mai
  phone: (+66) (53) 263 015
timor-leste: 
- address: |-
    c/o British Embassy Jakarta
    Jl. M.H. Thamrin No 75
    Jakarta 10310
    Indonesia
    ,Jakarta
  designation: 
  lat: -6.19242
  lon: 106.823
  location_name: 
  phone: (62) (21) 2356 5200
togo: []

tonga: 
- address: |-
    Non-resident British High Commissioner 
    (resides in Suva, Fiji)
    
    British High Commission
    Victoria House
    47 Gladstone Road
    PO Box 1355
    Suva
    Fiji
    ,Suva
  designation: Suva
  lat: -18.1468
  lon: 178.424
  location_name: British High Commission
  phone: ""
trinidad-and-tobago: 
- address: |-
    British High Commission
    19 St Clair Avenue 
    St Clair 
    Port of Spain
    Trinidad,Port of Spain
  designation: British High Commission
  lat: 10.6685
  lon: -61.5226
  location_name: Port of Spain
  phone: (00) (1) (868) 350 0444
tristan-da-cunha: 
- address: |-
    The Administrator's Office
    The Settlement
    TRISTAN DA CUNHA
    South Atlantic Ocean
    TDCU 1ZZ
    (via Cape Town, RSA),
  designation: Administrator's Office
  lat: -37.0685
  lon: -12.311
  location_name: The Settlement
  phone: 00 870 764 341 816
tunisia: []

turkey: 
- address: "Atat\xC3\xBCrk Caddesi \r\n\
    Likya \xC4\xB0\xC5\x9F Merkezi \r\n\
    Kat: 2 No: 202 \r\n\
    48300 \r\n\
    Fethiye \r\n\
    Mu\xC4\x9Fla\r\n\
    ,"
  designation: British Honorary Consulate
  lat: 36.6224
  lon: 29.1145
  location_name: Fethiye
  phone: ""
- address: "\r\n\
    ,"
  designation: British Council
  lat: 40.9893
  lon: 28.7043
  location_name: Istanbul
  phone: ""
- address: |-
    British Consulate General
    Mesrutiyet Caddesi No 34
    Tepebasi Beyoglu 34435
    Istanbul
    ,
  designation: British Consulate-General
  lat: 40.9893
  lon: 28.7043
  location_name: Istanbul
  phone: +90 (212) 334 6400
- address: "British Embassy\r\n\
    \xC5\x9Eehit Ersan Caddesi 46/A \r\n\
    \xC3\x87ankaya\r\n\
    ,Ankara"
  designation: British Embassy
  lat: 39.8938
  lon: 32.861
  location_name: Ankara
  phone: 0312 455 3344
- address: "G\xC3\xBCrsu Mahallesi\r\n\
    324. Sokak No:6\r\n\
    Konyaalt\xC4\xB1\r\n\
    Antalya,"
  designation: British Vice-Consulate
  lat: 36.864
  lon: 30.6275
  location_name: Antalya
  phone: ""
- address: "\n\
    Cafer Pasa Cad\r\n\
    2. Emsan Evleri\r\n\
    No 7\r\n\
    Bodrum\n\n\n\
    \xC2\xA0\n\n\n\
    \r\n\
    \xC2\xA0\n\
    ,"
  designation: British Honorary Consulate
  lat: 37.0349
  lon: 27.4162
  location_name: Bodrum
  phone: ""
- address: |-
    1442 Sokak No 49 
    Alsancak 
    Izmir PK 300
    ,
  designation: British Consulate
  lat: 38.4534
  lon: 27.2536
  location_name: Izmir
  phone: ""
turkmenistan: 
- address: |-
    British Embassy
    Four Points Ak Altin Hotel
    301-308 Office Building
    Ashgabat
    Turkmenistan
    Email:
    beasb@online.tm
    beasbppa@online.tm ,Ashgabat
  designation: British Embassy
  lat: 37.959
  lon: 58.365
  location_name: Ashgabat
  phone: (993) (12) 363462/63/64
turks-and-caicos-islands: 
- address: |-
    Governor's Office
    Turks & Caicos Islands
    Waterloo
    Grand Turk,
  designation: Governor's Office
  lat: 21.4026
  lon: -71.1159
  location_name: Waterloo
  phone: ""
tuvalu: 
- address: |-
    Non-resident British High Commissioner 
    (resides in Suva, Fiji)
    
    British High Commission
    Victoria House
    47 Gladstone Road
    PO Box 1355
    Suva
    Fiji
    ,Suva
  designation: Suva
  lat: -18.1468
  lon: 178.424
  location_name: British High Commission
  phone: ""
uganda: 
- address: |-
    British High Commission
    4 Windsor Loop
    PO Box 7070,Kampala
  designation: British High Commission
  lat: 0.31655
  lon: 32.5799
  location_name: Kampala
  phone: (256) (31) 2312000
- address: |-
    Ground Floor, Rwenzori Courts
    Plot 2 & 4a, Nakasero Road
    PO Box 7070
    Kampala,
  designation: British Council
  lat: 0.33729
  lon: 32.5857
  location_name: Kampala
  phone: (256) (414) 560800
ukraine: 
- address: |-
    British Embassy
    9 Desyatynna St.
    Kyiv 01901
    
    Consular and Visa Sections
    Artyom Business Centre
    4, Glybochytska St.
    Kyiv 04050,Kyiv
  designation: British Embassy
  lat: 50.4604
  lon: 30.4871
  location_name: Kyiv
  phone: ""
united-arab-emirates: 
- address: |-
    Khalid bin Al Waleed St (Street 22)
    PO Box 248
    
    ,Abu Dhabi
  designation: British Embassy
  lat: 24.4836
  lon: 54.3509
  location_name: Abu Dhabi
  phone: +971 2 610 1100
- address: |-
    Al Seef Road 
    PO Box 65 
    Dubai
    United Arab Emirates,Dubai
  designation: British Embassy
  lat: 25.2598
  lon: 55.3067
  location_name: Dubai
  phone: (971) (4) 309 4444
united-states: 
- address: |-
    845 Third Avenue
    New York
    NY 10022,
  designation: British Consulate-General
  lat: 40.7568
  lon: -73.9699
  location_name: New York
  phone: (212) 745 0200
- address: |-
    200 South Orange Ave, Suite 2110 
    Orlando 
    Florida 32801 
    USA,
  designation: British Consulate
  lat: 28.5402
  lon: -81.3793
  location_name: Orlando
  phone: ""
- address: |-
    British Embassy
    3100 Massachusetts Ave, NW
    Washington DC 20008
    ,Washington, DC
  designation: British Embassy
  lat: 38.9196
  lon: -77.0625
  location_name: Washington
  phone: (1)(202) 588 6500
- address: |-
    Mr Nicholas Stasevich
    Butzel Long, Detroit Office
    150 West Jefferson, Suite 100
    Detroit, MI 48226-4450,
  designation: British Honorary Consulate
  lat: 42.3288
  lon: -83.0465
  location_name: Michigan
  phone: ""
- address: "\n\
    625 N. Michigan Avenue\r\n\
    Suite 2200\r\n\
    Chicago IL 60611 \n\
    ,Chicago"
  designation: British Consulate-General
  lat: 41.8895
  lon: -87.6245
  location_name: Chicago
  phone: ""
- address: |-
    One Broadway
    Cambridge
    MA 02142,
  designation: British Consulate-General
  lat: 42.3627
  lon: -71.0833
  location_name: Boston
  phone: ""
- address: |-
    Georgia Pacific Center
    Suite 3400
    133 Peachtree Street NE
    Atlanta GA 30303,
  designation: British Consulate-General
  lat: 33.7513
  lon: -84.3931
  location_name: Atlanta
  phone: ""
- address: |-
    Suite 850, 1 Sansome Street 
    San Francisco, CA 94104
    ,
  designation: British Consulate-General
  lat: 37.7905
  lon: -122.401
  location_name: San Francisco
  phone: ""
- address: |-
    11766 Wilshire Boulevard, Suite 1200 
    Los Angeles, California 90025-6538,
  designation: British Consulate-General
  lat: 34.048
  lon: -118.462
  location_name: Los Angeles
  phone: (310) 481 0031
- address: |-
    Suite 1030, World Trade Centre Tower
    1675 Broadway
    Denver CO 80202,
  designation: British Consulate-General
  lat: 39.7428
  lon: -104.988
  location_name: Denver
  phone: ""
- address: "\r\n\
    Wells Fargo Plaza\r\n\
    1000 Louisiana Suite 1900\r\n\
    Houston, Texas 77002,"
  designation: British Consulate-General
  lat: 29.7586
  lon: -95.3684
  location_name: Houston
  phone: (1) (713) 659 6270
- address: |-
    Brickell Bay Drive
    Miami
    Florida 33131,
  designation: British Consulate-General
  lat: 25.7569
  lon: -80.1909
  location_name: Miami
  phone: ""
uruguay: 
- address: |-
    British Embassy
    Calle Marco Bruto 1073
    11300 Montevideo
    ,Montevideo
  designation: British Embassy
  lat: 34.9036
  lon: -56.1394
  location_name: Montevideo
  phone: (598) 2622 3630 or 2622 3650
uzbekistan: 
- address: "British Embassy\r\n\
    67, Gulyamov\xC2\xA0Street\r\n\
    Tashkent 100 000\r\n\
    Email:\r\n\
    General enquiries\xC2\xA0\r\n\
    Visa enquiries\xC2\xA0\r\n\
    Consular enquiries ,Tashkent"
  designation: British Embassy
  lat: 41.3169
  lon: 69.2863
  location_name: Tashkent
  phone: (99871) 1201500 (Switchboard)
vanuatu: []

venezuela: 
- address: |-
    Dalca
    Urb. Industrial El Recreo,
    Calle B
    Parcela 103
    Valencia
    Estado Carabobo,
  designation: British Consulate
  lat: 10.1372
  lon: -67.958
  location_name: Valencia
  phone: ""
- address: |-
    British Embassy
    Torre La Castellana, Piso 11
    Avenida La Principal de la Castellana
    (Av. Eugenio Mendoza)
    La Castellana
    Caracas 1061,Caracas
  designation: British Embassy
  lat: 10.4985
  lon: -66.8517
  location_name: Caracas
  phone: +58 (0) 212 263-8411
- address: "\n\
    Av. 4 Bella Vista\r\n\
    Edif. Centro Profesional Norte\r\n\
    Piso, Oficina 3A\r\n\
    Diagonal al C.C. Costa Verde\r\n\
    Maracaibo, Edo. Zulia \n\n\n\
    Mobile: +58 (0414) 639-3957\r\n\
    Email: Alex.Podolecki-HonCon@fconet.fco.gov.uk\r\n\
    Assistant Raiza Vale: raiza.v-assthoncon@fconet.fco.gov.uk\r\n\
    ,"
  designation: British Honorary Consulate
  lat: 10.6642
  lon: -71.6065
  location_name: Maracaibo
  phone: ""
- address: |-
    ULA, Post-Grado Ciencias Politicas
    Facultad Ciencias Juridicas/Politicas
    AV. Las Americas
    Merida
    ,
  designation: British Honorary Consulate
  lat: 8.5953
  lon: -71.1478
  location_name: "M\xC3\xA9rida"
  phone: ""
- address: "Centro Comercial El Tam\xC3\xA1\r\n\
    Segundo Nivel, Local 49\r\n\
    Urb. Altos de Pirineos\r\n\
    San Crist\xC3\xB3bal, Estado T\xC3\xA1chira\r\n\
    ,San Crist\xC3\xB3bal"
  designation: British Honorary Consulate
  lat: 7.77448
  lon: -72.2128
  location_name: "San Crist\xC3\xB3bal"
  phone: (+58) (0) 276 356 673
vietnam: 
- address: |-
    Central Building
    4th floor 
    31 Hai Ba Trung
    Hanoi,Hanoi
  designation: British Embassy
  lat: 21.012
  lon: 105.855
  location_name: Hanoi
  phone: ""
- address: |-
    25 Le Duan Street
    District 1
    Ho Chi Minh City,Ho Chi Minh City
  designation: British Consulate-General
  lat: 10.7752
  lon: 106.697
  location_name: Ho Chi Minh City
  phone: ""
- address: |-
    40 Cat Linh Street
    Hanoi,
  designation: British Council
  lat: 21.012
  lon: 105.855
  location_name: Hanoi
  phone: ""
wallis-and-futuna: []

western-sahara: []

yemen: 
- address: "British Embassy \r\n\
    938 Thaher Himiyar Street \r\n\
    East Ring Road opposite M\xC3\xB6venpick Hotel\r\n\
    PO Box 1287\r\n\
    Sana'a,Sana'a"
  designation: British Embassy
  lat: 15.3627
  lon: 44.2346
  location_name: Sana'a
  phone: (00 967) 1 302480/1/2/3/4/5
zambia: 
- address: |-
    British High Commission
    5210 Independence Avenue
    PO Box 50050
    15101 Ridgeway,Lusaka Zambia
  designation: British High Commission
  lat: -15.424
  lon: 28.3106
  location_name: Lusaka
  phone: (260) (211) 423200
zimbabwe: 
- address: "\n\
    British Embassy\r\n\
    3 Norfolk Road\r\n\
    Mount Pleasant\r\n\
    P O Box 4490 \n\
    ,Harare"
  designation: British Embassy
  lat: -17.7601
  lon: 31.0415
  location_name: Harare
  phone: 0772 125 160-167; 04 338800 -338817
- address: |-
    Corner House, 6th Floor 
    Samora Machel Avenue/Leopold Takawira Street
    PO Box 1030 Harare
    ,
  designation: Department for International Development
  lat: -17.7601
  lon: 31.0415
  location_name: Harare
  phone: ""
